[
    {
      "id": 1,
      "image_url": "https://media.istockphoto.com/id/1323776356/ko/%EC%82%AC%EC%A7%84/%EC%84%9C%EC%9A%B8%ED%9D%A5%EC%A7%80%EB%AC%B8.jpg?s=612x612&w=0&k=20&c=UEBogMv-XHbUUH9Gh9uBtd2wv3mLH1U2lnr0jSOQatg=",
      "name": "경복궁",
      "details": "조선 왕조의 궁궐로, 한국의 역사와 문화를 느낄 수 있는 곳입니다.",
      "address": "서울특별시 종로구 사직로 161 경복궁",
      "phone": "02-3700-3900",
      "hours": "09:00 - 18:00 (휴궁일: 매주 화요일)",
      "website": "http://www.royalpalace.go.kr/"
    },
    {
      "id": 2,
      "image_url": "https://cdn.pixabay.com/photo/2022/10/15/16/44/night-view-7523474_1280.jpg",
      "name": "남산서울타워",
      "details": "서울의 전경을 한눈에 볼 수 있는 전망대입니다.",
      "address": "서울특별시 용산구 남산공원길 105",
      "phone": "02-3455-9277",
      "hours": "10:00 - 23:00",
      "website": "http://www.seoultower.co.kr/"
    },
    {
      "id": 3,
      "image_url": "https://mediahub.seoul.go.kr/wp-content/uploads/editor/images/000558/%EC%8C%88%EC%A7%80%EA%B8%B8_%EC%A4%91%EC%A0%95_DSC03517.jpg",
      "name": "인사동",
      "details": "전통과 현대가 조화를 이루는 예술과 문화의 거리입니다.",
      "address": "서울특별시 종로구 인사동",
      "phone": "02-737-7890",
      "hours": "상시 개방",
      "website": "http://www.insadong.or.kr/"
    },
    {
      "id": 4,
      "image_url": "https://upload.wikimedia.org/wikipedia/commons/a/a4/Bukchon_Hanok_Village_%EB%B6%81%EC%B4%8C_%ED%95%9C%EC%98%A5%EB%A7%88%EC%9D%84_October_1_2020_15.jpg",
      "name": "북촌한옥마을",
      "details": "전통 한옥이 밀집한 마을로, 한국의 전통 건축을 체험할 수 있습니다.",
      "address": "서울특별시 종로구 계동길 37",
      "phone": "02-2133-1372",
      "hours": "상시 개방",
      "website": "http://hanok.seoul.go.kr/"
    },
    {
      "id": 5,
      "image_url": "https://i.namu.wiki/i/izM4IwnpFt6avd7mhBgEIZ2oG4cVVQVQC5gGxSQ8AabY7KaVU0fzWEobp0SkPZD8JTjPrJiUMcSuItzcazvSHA.webp",
      "name": "명동",
      "details": "쇼핑과 맛집이 많은 서울의 대표적인 번화가입니다.",
      "address": "서울특별시 중구 명동",
      "phone": "02-774-3238",
      "hours": "상시 개방",
      "website": "http://www.myeongdong.org/"
    },
    {
      "id": 6,
      "image_url": "https://sampartners-website-resources.s3.ap-northeast-2.amazonaws.com/images/aart_3a27463009074aa6a4c19013bd661831.jpg",
      "name": "동대문디자인플라자",
      "details": "미래지향적인 디자인과 전시가 있는 복합 문화 공간입니다.",
      "address": "서울특별시 중구 을지로 281",
      "phone": "02-2153-0000",
      "hours": "10:00 - 21:00",
      "website": "http://www.ddp.or.kr/"
    }
]